{
  "success": true,
  "data": {
    "sdek": {
      "pvz": {
        "auto": {
          "price": 391,
          "period": "4-5 дней",
          "label": "СДЭК (Посылка, до пункта)",
          "service_name": "СДЭК",
          "inn": "7727374996",
          "tariff": "Посылка, до пункта",
          "period_formatted": "4-5 дней",
          "price_formatted": "391 руб",
          "pvz": [{
              "name": "Аврора (на Гагарина, 38)",
              "lat": "55.129726",
              "lon": "61.43437",
              "address": "Россия, Челябинская обл., Челябинск, ул. Гагарина, 38",
              "phone": "+73512003595",
              "worktime": "Пн-Пт 09:00-20:00, Сб-Вс 10:00-18:00",
              "more": "1 этаж, отдельный вход со стороны ул. Гагарина"
            },
            {
              "name": "На Труда 174",
              "lat": "55.171504",
              "lon": "61.365498",
              "address": "Россия, Челябинская обл., Челябинск, ул. Труда, 174",
              "phone": "+79507333393",
              "worktime": "Пн-Пт 09:00-20:00, Сб-Вс 10:00-18:00",
              "more": "Как добраться: Вход \"Е\" со стороны улицы Труда, рядом с рестораном в правой части здания."
            },
            {
              "name": "На Худякова",
              "lat": "55.1479645",
              "lon": "61.3779411",
              "address": "Россия, Челябинская обл., Челябинск, ул. Худякова, 6",
              "phone": "+79043058500",
              "worktime": "Пн-Пт 10:00-20:00, Сб-Вс 10:00-18:00",
              "more": "Остановка общественного транспорта ул. Худякова, отдельная входная группа, крайнее левое крыльцо."
            },
            {
              "name": "На Комсомольском",
              "lat": "55.192618",
              "lon": "61.37882",
              "address": "Россия, Челябинская обл., Челябинск, пр-т Комсомольский, 10 г",
              "phone": "+73512250184",
              "worktime": "Пн-Пт 08:00-21:00, Сб-Вс 10:00-20:00",
              "more": ""
            },
            {
              "name": "На Чичерина, 13",
              "lat": "55.18617",
              "lon": "61.288486",
              "address": "Россия, Челябинская обл., Челябинск, ул. Чичерина, 13",
              "phone": "+79226959666",
              "worktime": "Пн-Пт 10:00-20:00, Сб-Вс 10:00-18:00",
              "more": "Пересечение улиц Чичерина и Комсомольский проспект"
            },
            {
              "name": "На Тополинке",
              "lat": "55.164359",
              "lon": "61.28971",
              "address": "Россия, Челябинская обл., Челябинск, ул. Академика Королёва, 44",
              "phone": "+79000975870, +73517507251",
              "worktime": "Пн-Пт 10:00-20:00, Сб-Вс 10:00-18:00",
              "more": "Проезд, автобус - 15, 16с, 31, 32 или маршр. такси - 3, 31, 24,54, 60, 78 ,86, 94, 136, 157 ост. Ак. Королёва, 300 м вверх по ул. Королёва. Перед офисом большая парковка, напротив м-зин «К&Б»"
            },
            {
              "name": "КБС (на Гагарина, 9)",
              "lat": "55.141845",
              "lon": "61.443095",
              "address": "Россия, Челябинская обл., Челябинск, ул. Гагарина, 9",
              "phone": "+79507333393",
              "worktime": "Пн-Пт 10:00-20:00, Сб-Вс 10:00-18:00",
              "more": "С противоположной стороны от ТК «Андреевский», рядом с автосалоном. Вход в полуподвальное помещение со стороны улицы Гагарина."
            },
            {
              "name": "На Пионерской",
              "lat": "55.193129",
              "lon": "61.348134",
              "address": "Россия, Челябинская обл., Челябинск, ул. Пионерская, 3",
              "phone": "+79226959666",
              "worktime": "Пн-Пт 10:00-20:00, Сб-Вс 10:00-18:00",
              "more": "Пересечение Комсомольского проспекта и улицы Пионерской. Остановки “Кинотеатр Победа” или “Пионерская”."
            },
            {
              "name": "Ньютон",
              "lat": "55.171154",
              "lon": "61.278469",
              "address": "Россия, Челябинская обл., Челябинск, Ул. Героя России Родионова, 6",
              "phone": "+79292394262",
              "worktime": "Пн-Вс 09:00-21:00",
              "more": "Идём по проспекту Родионова вдоль дома Ул. Героя России Родионова 6, в низ по проспекту, поворачиваем в за угол 6го дома, находим вывеску СДЭК"
            },
            {
              "name": "АМЗ на Кузнецова",
              "lat": "55.115414",
              "lon": "61.350703",
              "address": "Россия, Челябинская обл., Челябинск, ул. Кузнецова, 6",
              "phone": "+79514369600",
              "worktime": "Пн-Пт 10:00-20:00, Сб-Вс 10:00-18:00",
              "more": "На общественном транспорте до остановки Магазин (ул. Кузнецова) на против стадиона АМЗ (Челябинец)"
            },
            {
              "name": "На Бабушкина",
              "lat": "55.178251",
              "lon": "61.350109",
              "address": "Россия, Челябинская обл., Челябинск, УЛ. БРАТЬЕВ КАШИРИНЫХ, 97",
              "phone": "+79193198736",
              "worktime": "Пн-Пт 10:00-20:00, Сб-Вс 10:00-18:00",
              "more": "По улице Братьев Кашириных посередине между ост. ул Чайковского  и  ост Бабушкина"
            },
            {
              "name": "На Университетской Набережной, 92",
              "lat": "55.160379",
              "lon": "61.302012",
              "address": "Россия, Челябинская обл., Челябинск, ул. Университетская Набережная, 92",
              "phone": "+79226959666",
              "worktime": "Пн-Пт 10:00-20:00, Сб-Вс 10:00-18:00",
              "more": "Пересечение улиц Академика Королева и Университетская Набережная"
            },
            {
              "name": "На Свердловском проспекте",
              "lat": "55.1822586",
              "lon": "61.3864632",
              "address": "Россия, Челябинская обл., Челябинск, пр-т Свердловский, 28",
              "phone": "+73517761204",
              "worktime": "Пн-Пт 09:00-20:00, Сб-Вс 10:00-18:00",
              "more": "Вход со стороны дороги."
            },
            {
              "name": "На Энгельса",
              "lat": "55.162078",
              "lon": "61.38031",
              "address": "Россия, Челябинская обл., Челябинск, ул. Энгельса, 24",
              "phone": "+73512170803",
              "worktime": "Пн-Пт 10:00-20:00, Сб-Вс 10:00-18:00",
              "more": "На пересечении ул. Коммуны и Энгельса, перед входом в Центральный стадион, вход со стороны ул. Энгельса."
            },
            {
              "name": "На Шоссе Металлургов",
              "lat": "55.247231",
              "lon": "61.378748",
              "address": "Россия, Челябинская обл., Челябинск, шоссе Металлургов, 70",
              "phone": "+79193562583",
              "worktime": "Пн-Пт 10:00-20:00, Сб-Вс 10:00-18:00",
              "more": "Остановка центральный клуб. Вход — трехэтажный  дом, крыльцо на территории остановки, возле КБ ."
            },
            {
              "name": "ЖД Вокзал",
              "lat": "55.143615",
              "lon": "61.412888",
              "address": "Россия, Челябинская обл., Челябинск, ул. Цвиллинга, 90",
              "phone": "+73517230313",
              "worktime": "Пн-Пт 10:00-20:00, Сб-Вс 10:00-18:00",
              "more": ""
            },
            {
              "name": "На Богдана Хмельницкого",
              "lat": "55.258633",
              "lon": "61.387615",
              "address": "Россия, Челябинская обл., Челябинск, ул. Богдана Хмельницкого, 18",
              "phone": "+79123041446",
              "worktime": "Пн-Пт 10:00-20:00, Сб-Вс 10:00-18:00",
              "more": "Остановка кинотеатр Россия"
            },
            {
              "name": "на пр. Ленина",
              "lat": "55.160288",
              "lon": "61.418957",
              "address": "Россия, Челябинская обл., Челябинск, Проспект Ленина, 31",
              "phone": "+73512003656",
              "worktime": "Пн-Пт 09:00-20:00, Сб-Вс 10:00-18:00",
              "more": ""
            },
            {
              "name": "На Пушкина",
              "lat": "55.164834",
              "lon": "61.409183",
              "address": "Россия, Челябинская обл., Челябинск, Ул. Пушкина, 25",
              "phone": "+73517500933",
              "worktime": "Пн-Пт 10:00-20:00, Сб-Вс 10:00-18:00",
              "more": "200м от ТРК Куба в сторону ул. Свободы, 60м направо от пересечения ул. К. Маркса и ул. Пушкина."
            },
            {
              "name": "На Кирова",
              "lat": "55.1055",
              "lon": "61.2359",
              "address": "Россия, Челябинская обл., Челябинск, КИРОВА, 3",
              "phone": "+79193252427",
              "worktime": "Пн-Пт 10:00-20:00, Сб-Вс 10:00-18:00",
              "more": ""
            },
            {
              "name": "На 50-летия ВЛКСМ",
              "lat": "55.242899",
              "lon": "61.386061",
              "address": "Россия, Челябинская обл., Челябинск, ул. 50-летия ВЛКСМ, 13",
              "phone": "+79995879696, +79962300007",
              "worktime": "Пн-Пт 09:00-20:00, Сб-Вс 10:00-18:00",
              "more": ""
            },
            {
              "name": "Парковый (На Бейвеля)",
              "lat": "55.204425",
              "lon": "61.283308",
              "address": "Россия, Челябинская обл., Челябинск, ул. Бейвеля, 33",
              "phone": "+73512238070",
              "worktime": "Пн-Пт 10:00-20:00, Сб-Вс 10:00-18:00",
              "more": ""
            },
            {
              "name": "На Комарова",
              "lat": "55.173967",
              "lon": "61.456326",
              "address": "Россия, Челябинская обл., Челябинск, ул. Комарова, 137",
              "phone": "+73517514505",
              "worktime": "Пн-Пт 10:00-20:00, Сб-Вс 10:00-18:00",
              "more": ""
            },
            {
              "name": "На Чичерина, 37Б",
              "lat": "55.175134",
              "lon": "61.303442",
              "address": "Россия, Челябинская обл., Челябинск, ул. Чичерина, 37Б",
              "phone": "+79226959666",
              "worktime": "Пн-Пт 10:00-20:00, Сб-Вс 10:00-18:00",
              "more": "Пересечение улиц Чичерина и Братьев Кашириных"
            },
            {
              "name": "40-летия Победы,5 (ЖК Александровский)",
              "lat": "55.192538",
              "lon": "61.286931",
              "address": "Россия, Челябинская обл., Челябинск, ул. 40-летия Победы, 5",
              "phone": "+79227504241",
              "worktime": "Пн-Пт 10:00-20:00, Сб-Вс 10:00-18:00",
              "more": "отдельная входная группа"
            },
            {
              "name": "На Свободы, 161",
              "lat": "55.149465",
              "lon": "61.416612",
              "address": "Россия, Челябинская обл., Челябинск, ул.Свободы, 161",
              "phone": "+73517512932, +79227173790, +79227173036",
              "worktime": "Пн-Пт 10:00-20:00, Сб-Вс 10:00-18:00",
              "more": "Остановка Евтеева. Вход – 50 метров правее Управления по физической культуре, спорту и туризму администрации г.Челябинска"
            },
            {
              "name": "На Молодогвардейцев",
              "lat": "55.183575",
              "lon": "61.331964",
              "address": "Россия, Челябинская обл., Челябинск, ул. Молодогвардейцев, 62",
              "phone": "+79028646635",
              "worktime": "Пн-Пт 10:00-20:00, Сб-Вс 10:00-18:00",
              "more": "рядом магазин «Столица швейных машин»"
            },
            {
              "name": "Алое Поле, Свердловский пр-т, 62",
              "lat": "55.161821",
              "lon": "61.388342",
              "address": "Россия, Челябинская обл., Челябинск, пр-т. Свердловский, 62",
              "phone": "+73512003556",
              "worktime": "Пн-Пт 09:00-20:00, Сб-Вс 10:00-18:00",
              "more": "Офис находится вблизи перекрестка проспекта Ленина и Свердловского проспекта."
            },
            {
              "name": "На Братьев Кашириных",
              "lat": "55.178194",
              "lon": "61.328389",
              "address": "Россия, Челябинская обл., Челябинск, ул. Братьев Кашириных, 115",
              "phone": "+79227500933, +73517500933",
              "worktime": "Пн-Пт 10:00-20:00, Сб-Вс 10:00-18:00",
              "more": ""
            },
            {
              "name": "Теорема",
              "lat": "55.194013",
              "lon": "61.315713",
              "address": "Россия, Челябинская обл., Челябинск, пр-т Комсомольский, 69",
              "phone": "+73512230852",
              "worktime": "Пн-Пт 09:00-20:00, Сб-Вс 10:00-18:00",
              "more": ""
            }
          ]
        }
      },
      "address": {
        "auto": {
          "price": 780,
          "period": "5 дней",
          "label": "GTD",
          "service_name": "GTD",
          "inn": "7721823853",
          "tariff": "Авто, до двери",
          "period_formatted": "6 дней",
          "price_formatted": "910 руб"
        }
      }
    },
    "gtd": {
      "pvz": {
        "auto": {
          "price": 545,
          "period": "4 дня",
          "label": "GTD (Стандарт, до пункта)",
          "service_name": "GTD",
          "inn": "",
          "tariff": "Стандарт, до пункта",
          "period_formatted": "4 дня",
          "price_formatted": "545 руб",
          "pvz": [{
              "name": "Северный луч, 1 А",
              "address": "Северный луч, 1 А",
              "lat": "55.214794",
              "lon": "61.432358"
            },
            {
              "name": "Троицкий тракт, 33",
              "address": "Троицкий тракт, 33",
              "lat": "55.085961",
              "lon": "61.385890"
            },
            {
              "name": "ул. Копейское шоссе, 48/корп. 4",
              "address": "ул. Копейское шоссе, 48/корп. 4",
              "lat": "55.139857",
              "lon": "61.471189"
            }
          ]
        }
      },
      "address": {
        "auto": {
          "price": 780,
          "period": "5 дней",
          "label": "GTD",
          "service_name": "GTD",
          "inn": "7721823853",
          "tariff": "Авто, до двери",
          "period_formatted": "6 дней",
          "price_formatted": "910 руб"
        }
      }
    },
    "pek": {
      "pvz": {
        "auto": {
          "price": 560,
          "period": "6 дней",
          "label": "ПЭК (Авто, до пункта)",
          "service_name": "ПЭК",
          "inn": "7721823853",
          "tariff": "Авто, до пункта",
          "period_formatted": "6 дней",
          "price_formatted": "560 руб",
          "pvz": [{
              "name": "Челябинск 01",
              "lat": "55.214675",
              "lon": "61.433474",
              "address": "г. Челябинск, Северный луч, д. 1а",
              "phone": "8(351) 220-03-31",
              "worktime": "Время работы уточняйте по телефону.",
              "more": ""
            },
            {
              "name": "Челябинск Богдана Хмельницкого 16 (магазин \"Westfa",
              "lat": "55.258699",
              "lon": "61.389259",
              "address": "Россия, Челябинская область, город Челябинск, Металлургический район, улица Богдана Хмельницкого, дом 16",
              "phone": "8(351) 220-03-31",
              "worktime": "Время работы уточняйте по телефону.",
              "more": ""
            },
            {
              "name": "Челябинск Восток",
              "lat": "55.123189",
              "lon": "61.490217",
              "address": "г. Челябинск, Копейское шоссе, д. 25",
              "phone": "8(351) 220-03-31",
              "worktime": "Время работы уточняйте по телефону.",
              "more": ""
            },
            {
              "name": "Челябинск Гагарина 10 (магазин \"Westfalika\")",
              "lat": "55.142015",
              "lon": "61.442115",
              "address": "Россия, Челябинская область, город Челябинск, Ленинский район, улица Гагарина, дом 10",
              "phone": "8(351) 220-03-31",
              "worktime": "Время работы уточняйте по телефону.",
              "more": ""
            },
            {
              "name": "Челябинск Дарвина 18 ( ТК \"Каменный остров\" магази",
              "lat": "55.126848",
              "lon": "61.370106",
              "address": "Россия, Челябинская область, город Челябинск, Советский район, улица Дарвина, дом 18ТК",
              "phone": "8(351) 220-03-31",
              "worktime": "Время работы уточняйте по телефону.",
              "more": ""
            },
            {
              "name": "Челябинск Дегтярева 49 (Магазин \"Дешевых компьютер",
              "lat": "55.259864",
              "lon": "61.397361",
              "address": "Россия, Челябинская область, город Челябинск, Металлургический район, улица Дегтярева, дом 49",
              "phone": "8(351) 220-03-31",
              "worktime": "Время работы уточняйте по телефону.",
              "more": ""
            },
            {
              "name": "Челябинск проспект Комсомольский 33 (магазин \"West",
              "lat": "55.194044",
              "lon": "61.351305",
              "address": "Россия, Челябинская область, город Челябинск, Курчатовский район, проспект Комсомольский, дом 33",
              "phone": "8(351) 220-03-31",
              "worktime": "Время работы уточняйте по телефону.",
              "more": ""
            },
            {
              "name": "Челябинск проспект Ленина 61 (магазин \"Westfalika\"",
              "lat": "55.159794",
              "lon": "61.394855",
              "address": "Россия, Челябинская область, город Челябинск, Центральный район, проспект Ленина, дом 61",
              "phone": "8(351) 220-03-31",
              "worktime": "Время работы уточняйте по телефону.",
              "more": ""
            },
            {
              "name": "Челябинск Пушкина 56",
              "lat": "55.161126",
              "lon": "61.408599",
              "address": "Россия, Челябинск, улица Пушкина, 56",
              "phone": "8(351) 220-03-31",
              "worktime": "Время работы уточняйте по телефону.",
              "more": ""
            },
            {
              "name": "Челябинск Салютная 2 (магазин \"Пешеход\"",
              "lat": "55.171766",
              "lon": "61.456965",
              "address": "Россия, Челябинская область, город Челябинск, Тракторозаводский район, улица Салютная, дом 2",
              "phone": "8(351) 220-03-31",
              "worktime": "Время работы уточняйте по телефону.",
              "more": ""
            },
            {
              "name": "Челябинск Сталеваров 66ТК (ТК «Каменный остров» ма",
              "lat": "55.251778",
              "lon": "61.40276",
              "address": "Россия, Челябинская область, город Челябинск, Металлургический район, улица Сталеваров, дом 66ТК",
              "phone": "8(351) 220-03-31",
              "worktime": "Время работы уточняйте по телефону.",
              "more": ""
            },
            {
              "name": "Челябинск Юг",
              "lat": "55.086517",
              "lon": "61.387282",
              "address": "г. Челябинск, ул. Троицкий тракт, д. 25",
              "phone": "8(351) 220-03-31",
              "worktime": "Время работы уточняйте по телефону.",
              "more": ""
            },
            {
              "name": "Челябинск, ул. Гагарина, д. 45",
              "lat": "55.119327",
              "lon": "61.435701",
              "address": "Россия, Челябинская обл., г. Челябинск, ул.Гагарина, д. 45",
              "phone": "8(351) 220-03-31",
              "worktime": "Время работы уточняйте по телефону.",
              "more": ""
            },
            {
              "name": "Челябинск, ул.Свободы, 104",
              "lat": "55.146579",
              "lon": "61.41593",
              "address": "Россия, Челябинская обл., Челябинск, ул.Свободы, 104",
              "phone": "8(351) 220-03-31",
              "worktime": "Время работы уточняйте по телефону.",
              "more": ""
            }
          ]
        }
      },
      "address": {
        "auto": {
          "price": 780,
          "period": "5 дней",
          "label": "GTD",
          "service_name": "GTD",
          "inn": "7721823853",
          "tariff": "Авто, до двери",
          "period_formatted": "6 дней",
          "price_formatted": "910 руб"
        }
      }
    },
    "post": {
      "pvz": {
        "auto": {
          "price": 560,
          "period": "6 дней",
          "label": "ПЭК (Авто, до пункта)",
          "service_name": "ПЭК",
          "inn": "7721823853",
          "tariff": "Авто, до пункта",
          "period_formatted": "6 дней",
          "price_formatted": "560 руб",
          "pvz": [{
              "name": "Челябинск 01",
              "lat": "55.214675",
              "lon": "61.433474",
              "address": "г. Челябинск, Северный луч, д. 1а",
              "phone": "8(351) 220-03-31",
              "worktime": "Время работы уточняйте по телефону.",
              "more": ""
            },
            {
              "name": "Челябинск Богдана Хмельницкого 16 (магазин \"Westfa",
              "lat": "55.258699",
              "lon": "61.389259",
              "address": "Россия, Челябинская область, город Челябинск, Металлургический район, улица Богдана Хмельницкого, дом 16",
              "phone": "8(351) 220-03-31",
              "worktime": "Время работы уточняйте по телефону.",
              "more": ""
            },
            {
              "name": "Челябинск Восток",
              "lat": "55.123189",
              "lon": "61.490217",
              "address": "г. Челябинск, Копейское шоссе, д. 25",
              "phone": "8(351) 220-03-31",
              "worktime": "Время работы уточняйте по телефону.",
              "more": ""
            },
            {
              "name": "Челябинск Гагарина 10 (магазин \"Westfalika\")",
              "lat": "55.142015",
              "lon": "61.442115",
              "address": "Россия, Челябинская область, город Челябинск, Ленинский район, улица Гагарина, дом 10",
              "phone": "8(351) 220-03-31",
              "worktime": "Время работы уточняйте по телефону.",
              "more": ""
            },
            {
              "name": "Челябинск Дарвина 18 ( ТК \"Каменный остров\" магази",
              "lat": "55.126848",
              "lon": "61.370106",
              "address": "Россия, Челябинская область, город Челябинск, Советский район, улица Дарвина, дом 18ТК",
              "phone": "8(351) 220-03-31",
              "worktime": "Время работы уточняйте по телефону.",
              "more": ""
            },
            {
              "name": "Челябинск Дегтярева 49 (Магазин \"Дешевых компьютер",
              "lat": "55.259864",
              "lon": "61.397361",
              "address": "Россия, Челябинская область, город Челябинск, Металлургический район, улица Дегтярева, дом 49",
              "phone": "8(351) 220-03-31",
              "worktime": "Время работы уточняйте по телефону.",
              "more": ""
            },
            {
              "name": "Челябинск проспект Комсомольский 33 (магазин \"West",
              "lat": "55.194044",
              "lon": "61.351305",
              "address": "Россия, Челябинская область, город Челябинск, Курчатовский район, проспект Комсомольский, дом 33",
              "phone": "8(351) 220-03-31",
              "worktime": "Время работы уточняйте по телефону.",
              "more": ""
            },
            {
              "name": "Челябинск проспект Ленина 61 (магазин \"Westfalika\"",
              "lat": "55.159794",
              "lon": "61.394855",
              "address": "Россия, Челябинская область, город Челябинск, Центральный район, проспект Ленина, дом 61",
              "phone": "8(351) 220-03-31",
              "worktime": "Время работы уточняйте по телефону.",
              "more": ""
            },
            {
              "name": "Челябинск Пушкина 56",
              "lat": "55.161126",
              "lon": "61.408599",
              "address": "Россия, Челябинск, улица Пушкина, 56",
              "phone": "8(351) 220-03-31",
              "worktime": "Время работы уточняйте по телефону.",
              "more": ""
            },
            {
              "name": "Челябинск Салютная 2 (магазин \"Пешеход\"",
              "lat": "55.171766",
              "lon": "61.456965",
              "address": "Россия, Челябинская область, город Челябинск, Тракторозаводский район, улица Салютная, дом 2",
              "phone": "8(351) 220-03-31",
              "worktime": "Время работы уточняйте по телефону.",
              "more": ""
            },
            {
              "name": "Челябинск Сталеваров 66ТК (ТК «Каменный остров» ма",
              "lat": "55.251778",
              "lon": "61.40276",
              "address": "Россия, Челябинская область, город Челябинск, Металлургический район, улица Сталеваров, дом 66ТК",
              "phone": "8(351) 220-03-31",
              "worktime": "Время работы уточняйте по телефону.",
              "more": ""
            },
            {
              "name": "Челябинск Юг",
              "lat": "55.086517",
              "lon": "61.387282",
              "address": "г. Челябинск, ул. Троицкий тракт, д. 25",
              "phone": "8(351) 220-03-31",
              "worktime": "Время работы уточняйте по телефону.",
              "more": ""
            },
            {
              "name": "Челябинск, ул. Гагарина, д. 45",
              "lat": "55.119327",
              "lon": "61.435701",
              "address": "Россия, Челябинская обл., г. Челябинск, ул.Гагарина, д. 45",
              "phone": "8(351) 220-03-31",
              "worktime": "Время работы уточняйте по телефону.",
              "more": ""
            },
            {
              "name": "Челябинск, ул.Свободы, 104",
              "lat": "55.146579",
              "lon": "61.41593",
              "address": "Россия, Челябинская обл., Челябинск, ул.Свободы, 104",
              "phone": "8(351) 220-03-31",
              "worktime": "Время работы уточняйте по телефону.",
              "more": ""
            }
          ]
        }
      },
      "address": {
        "auto": {
          "price": 780,
          "period": "55 дней",
          "label": "POST",
          "service_name": "POST",
          "inn": "7721823853",
          "tariff": "Авто, до двери",
          "period_formatted": "6 дней",
          "price_formatted": "910 руб"
        }
      }
    }
  },
  "order": {
    "price": 100500,
    "discount": 9500,
    "totalPrice": 100000
  }
}